[
  {
    "Site": "Henry J. Carter Hospital",
    "Address": "1879 Madison Ave",
    "Borough": "Manhattan",
    "Agency": "HHC",
    "Environmental Justice Area": "Yes",
    "lat": 40.803681,
    "lon": -73.9422,
    "bbl": "1017470035",
    "energy_score": 100,
    "waste_score": 67,
    "nexus_score": 95,
    "recommended_bess_kwh": 500,
    "estimated_annual_savings_usd": 20000,
    "top_recommendation": "Deploy 500 kWh BESS + partner with AD facility for organics-to-energy",
    "rank": 9
  },
  {
    "Site": "X036",
    "Address": "1070 Castle Hill Ave",
    "Borough": "Bronx",
    "Agency": "DOE",
    "Environmental Justice Area": "Yes",
    "lat": 40.829344,
    "lon": -73.850428,
    "bbl": "2038170001",
    "energy_score": 83,
    "waste_score": 86,
    "nexus_score": 94,
    "recommended_bess_kwh": 500,
    "estimated_annual_savings_usd": 20000,
    "top_recommendation": "Deploy 500 kWh BESS + partner with AD facility for organics-to-energy",
    "rank": 11
  },
  {
    "Site": "K276",
    "Address": "1070 East 83 St",
    "Borough": "Brooklyn",
    "Agency": "DOE",
    "Environmental Justice Area": "Yes",
    "lat": 40.634085,
    "lon": -73.907925,
    "bbl": "3080340001",
    "energy_score": 83,
    "waste_score": 86,
    "nexus_score": 92,
    "recommended_bess_kwh": 750,
    "estimated_annual_savings_usd": 62479,
    "top_recommendation": "Deploy 750 kWh BESS + partner with AD facility for organics-to-energy",
    "rank": 19
  },
  {
    "Site": "K117",
    "Address": "300 Willoughby Ave",
    "Borough": "Brooklyn",
    "Agency": "DOE",
    "Environmental Justice Area": "Yes",
    "lat": 40.692642,
    "lon": -73.958794,
    "bbl": "3019260010",
    "energy_score": 80,
    "waste_score": 77,
    "nexus_score": 91,
    "recommended_bess_kwh": 750,
    "estimated_annual_savings_usd": 63860,
    "top_recommendation": "Deploy 750 kWh BESS + partner with AD facility for organics-to-energy",
    "rank": 24
  },
  {
    "Site": "Ocean Breeze Indoor Athletic Facility",
    "Address": "625 Father Capodanno Blvd",
    "Borough": "Staten Island",
    "Agency": "DPR",
    "Environmental Justice Area": "Yes",
    "lat": 40.582243,
    "lon": -74.074594,
    "bbl": "5033550001",
    "energy_score": 71,
    "waste_score": 95,
    "nexus_score": 91,
    "recommended_bess_kwh": 750,
    "estimated_annual_savings_usd": 83836,
    "top_recommendation": "Deploy 750 kWh BESS + partner with AD facility for organics-to-energy",
    "rank": 25
  },
  {
    "Site": "K014",
    "Address": "2424 Batchelder St",
    "Borough": "Brooklyn",
    "Agency": "DOE",
    "Environmental Justice Area": "No",
    "lat": 40.593521,
    "lon": -73.937672,
    "bbl": "3074240001",
    "energy_score": 76,
    "waste_score": 92,
    "nexus_score": 89,
    "recommended_bess_kwh": 750,
    "estimated_annual_savings_usd": 60439,
    "top_recommendation": "Deploy 750 kWh BESS + partner with AD facility for organics-to-energy",
    "rank": 34
  },
  {
    "Site": "X102",
    "Address": "1827 Archer St",
    "Borough": "Bronx",
    "Agency": "DOE",
    "Environmental Justice Area": "Yes",
    "lat": 40.837631,
    "lon": -73.866036,
    "bbl": "2039210030",
    "energy_score": 76,
    "waste_score": 88,
    "nexus_score": 89,
    "recommended_bess_kwh": 750,
    "estimated_annual_savings_usd": 58965,
    "top_recommendation": "Deploy 750 kWh BESS + partner with AD facility for organics-to-energy",
    "rank": 36
  },
  {
    "Site": "Staten Island 2 District Garage",
    "Address": "2500 Richmond Ave",
    "Borough": "Staten Island",
    "Agency": "DSNY",
    "Environmental Justice Area": "No",
    "lat": 40.587291,
    "lon": -74.168234,
    "bbl": "5025200001",
    "energy_score": 80,
    "waste_score": 76,
    "nexus_score": 88,
    "recommended_bess_kwh": 750,
    "estimated_annual_savings_usd": 71934,
    "top_recommendation": "Deploy 750 kWh BESS + partner with AD facility for organics-to-energy",
    "rank": 43
  }
]